Line,Station,Longitude,Latitude
1,韦家碾,104.093568,30.723298
1,升仙湖,104.089935,30.710639
1,火车北站,104.080354,30.701458
1,人民北路,104.079208,30.691592
1,文殊院,104.074467,30.678443
1,骡马市,104.072169,30.672684
1,天府广场,104.072525,30.663485
1,锦江宾馆,104.072507,30.656241
1,华西坝,104.072743,30.649044
1,省体育馆,104.072783,30.639472
1,倪家桥,104.072895,30.630932
1,桐梓林,104.073642,30.621375
1,火车南站,104.073663,30.610881
1,高新,104.070277,30.600337
1,金融城,104.070573,30.588679
1,孵化园,104.072316,30.582009
1,锦城广场,104.074164,30.574038
1,世纪城,104.075143,30.560685
1,天府三街,104.075175,30.552622
1,天府五街,104.075468,30.542953
1,华府大道,104.075945,30.531748
1,四河,104.076363,30.522797
1,华阳,104.077037,30.50938
1,海昌路,104.077465,30.498881
1,广福,104.076839,30.483925
1,红石公园,104.079139,30.470238
1,麓湖,104.079669,30.460511
1,武汉路,104.079948,30.448696
1,天府公园,104.084322,30.439036
1,西博城,104.082442,30.430495
1,广州路,104.0839,30.424744
1,兴隆湖,104.082948,30.411095
1,科学城,104.078763,30.397343
2,龙泉驿,104.274371,30.566287
2,龙平路,104.265307,30.579158
2,书房,104.248644,30.581505
2,界牌,104.231751,30.588479
2,连山坡,104.219417,30.593276
2,大面铺,104.207676,30.598356
2,成都行政学院,104.176909,30.603493
2,洪河,104.164163,30.611088
2,惠王陵,104.15868,30.618259
2,成渝立交,104.153767,30.631205
2,成都东客站,104.147357,30.635151
2,塔子山公园,104.129834,30.635384
2,东大路,104.119101,30.639263
2,牛市口,104.114378,30.64367
2,牛王庙,104.100273,30.650562
2,东门大桥,104.09391,30.654069
2,春熙路,104.086002,30.659204
2,天府广场,104.072525,30.663485
2,人民公园,104.063061,30.665527
2,通惠门,104.054964,30.668421
2,中医大省医院,104.047256,30.672356
2,白果林,104.039623,30.67998
2,蜀汉路东,104.035389,30.689271
2,一品天下,104.026772,30.695227
2,羊犀立交,104.018963,30.700215
2,茶店子客运站,104.019831,30.711968
2,迎宾大道,104.020016,30.719312
2,金科北路,104.013161,30.726773
2,金周路,104.002639,30.727445
2,百草路,103.985918,30.738784
2,天河路,103.982564,30.751225
2,犀浦,103.977365,30.763718
3,双流西站,103.923595,30.549467
3,三里坝,103.920933,30.559876
3,双流广场,103.926732,30.570888
3,东升,103.931929,30.577676
3,迎春桥,103.941515,30.586976
3,航都大街,103.943354,30.597347
3,龙桥路,103.951195,30.611018
3,双凤桥,103.975705,30.621614
3,武青南路,103.991739,30.628332
3,武侯立交,103.999961,30.632698
3,川藏立交,104.012676,30.628796
3,太平园,104.027774,30.631577
3,红牌楼,104.036032,30.640808
3,高升桥,104.048664,30.646067
3,衣冠庙,104.058645,30.6407
3,省体育馆,104.072783,30.639472
3,磨子桥,104.08249,30.64325
3,新南门,104.081674,30.650251
3,春熙路,104.086002,30.659204
3,市二医院,104.091107,30.666393
3,红星桥,104.096977,30.676872
3,前锋路,104.099127,30.684027
3,李家沱,104.101059,30.695203
3,驷马桥,104.100604,30.701188
3,昭觉寺南路,104.103393,30.708587
3,动物园,104.109793,30.719401
3,熊猫大道,104.114589,30.731364
3,军区总医院,104.120707,30.75039
3,植物园,104.127738,30.769026
3,金华寺东路,104.131822,30.776138
3,三河场,104.145337,30.79081
3,锦水河,104.159446,30.803482
3,团结新区,104.165241,30.810862
3,马超西路,104.171033,30.819334
3,钟楼,104.181805,30.827229
3,石油大学,104.192856,30.824877
3,成都医学院,104.201254,30.822906
4,万盛,103.82577,30.68175
4,杨柳河,103.837495,30.686908
4,凤溪河,103.849656,30.692699
4,南熏大道,103.858631,30.695103
4,光华公园,103.866871,30.690014
4,涌泉,103.879694,30.684146
4,凤凰大街,103.895745,30.683011
4,马厂坝,103.920035,30.683806
4,非遗博览园,103.929029,30.680347
4,蔡桥,103.951574,30.675826
4,中坝,103.97042,30.679138
4,成都西站,103.983382,30.689487
4,清江西路,104.005192,30.682364
4,文化宫,104.016235,30.67775
4,西南财大,104.026938,30.676564
4,草堂北路,104.034962,30.675304
4,中医大省医院,104.047256,30.672356
4,宽窄巷子,104.056769,30.671563
4,骡马市,104.072169,30.672684
4,太升南路,104.083368,30.670568
4,市二医院,104.091107,30.666393
4,玉双路,104.10515,30.659751
4,双桥路,104.119789,30.652251
4,万年场,104.125666,30.650093
4,槐树店,104.145913,30.65598
4,来龙,104.170609,30.653334
4,十陵,104.179131,30.652199
4,成都大学,104.188074,30.652963
4,明蜀王陵,104.202963,30.653987
4,西河,104.226824,30.652989
5,华桂路,104.105001,30.831085
5,柏水场,104.100853,30.821228
5,廖家湾,104.097574,30.814053
5,北部商贸城,104.095547,30.796735
5,幸福桥,104.094919,30.782638
5,九道堰,104.089278,30.777378
5,杜家碾,104.081823,30.77739
5,大丰,104.071468,30.777738
5,石犀公园,104.066296,30.766482
5,皇花园,104.066313,30.758173
5,陆家桥,104.065783,30.748563
5,泉水路,104.064817,30.736711
5,洞子口,104.064847,30.72787
5,福宁路,104.066249,30.720804
5,五块石,104.071056,30.713695
5,赛云台,104.072942,30.707112
5,北站西二路,104.072587,30.700391
5,西北桥,104.064075,30.691791
5,花牌坊,104.054513,30.689889
5,抚琴,104.048487,30.683662
5,中医大省医院,104.047256,30.672356
5,青羊宫,104.047215,30.666344
5,省骨科医院,104.047527,30.658001
5,高升桥,104.048664,30.646067
5,科园,104.044422,30.634373
5,九兴大道,104.045255,30.627609
5,神仙树,104.054223,30.616046
5,石羊立交,104.057213,30.60169
5,市一医院,104.056931,30.596074
5,交子大道,104.056639,30.588138
5,锦城大道,104.05674,30.581051
5,锦城湖,104.052531,30.569867
5,大源,104.05308,30.556263
5,民乐,104.052808,30.54717
5,骑龙,104.050746,30.531937
5,警官学院,104.046292,30.519287
5,二江寺,104.042486,30.506389
5,南湖立交,104.039666,30.49516
5,怡心湖,104.033053,30.477547
5,龙马路,104.025793,30.464128
5,回龙,104.018861,30.450485
6,望丛祠,103.884581,30.813065
6,和平街,103.893922,30.806336
6,郫筒,103.901026,30.802079
6,蜀新大道,103.909757,30.797333
6,檬梓,103.920903,30.790811
6,尚锦路,103.929761,30.783701
6,红高路,103.943538,30.775632
6,天宇路,103.960957,30.760184
6,犀浦,103.977365,30.763718
6,兴业北街,103.989947,30.764404
6,梓潼宫,103.999862,30.753756
6,侯家桥,104.011262,30.742795
6,兴盛,104.027956,30.737056
6,青杠,104.032297,30.731837
6,西华大道,104.038357,30.724944
6,金府,104.043377,30.717744
6,星河,104.050311,30.70877
6,西南交大,104.055494,30.701119
6,沙湾,104.057477,30.695933
6,西北桥,104.064075,30.691791
6,人民北路,104.079208,30.691592
6,梁家巷,104.089975,30.688062
6,前锋路,104.099127,30.684027
6,建设北路,104.105371,30.676808
6,新鸿路,104.10874,30.668626
6,玉双路,104.10515,30.659751
6,牛王庙,104.100273,30.650562
6,顺江路,104.099761,30.64116
6,三官堂,104.101183,30.634399
6,东光,104.104556,30.625342
6,琉璃场,104.106408,30.613229
6,琉三路,104.104732,30.605976
6,金石路,104.095796,30.596206
6,金融城东,104.091626,30.585028
6,中和,104.102574,30.564274
6,张家寺,104.104994,30.555826
6,陆肖,104.104972,30.543569
6,观东,104.104925,30.536646
6,新通大道,104.105038,30.527508
6,新川路,104.10713,30.521353
6,龙灯山,104.107941,30.514906
6,蒲草堂,104.105126,30.507332
6,万安,104.106038,30.500178
6,麓山大道,104.1099,30.488724
6,沈阳路,104.108076,30.473232
6,青岛路,104.108588,30.464572
6,昌公堰,104.10086,30.454259
6,杭州路,104.096036,30.445057
6,天府商务区,104.092961,30.435919
6,西博城,104.082442,30.430495
6,秦皇寺,104.068118,30.430616
6,松林,104.052762,30.432359
6,芦角,104.04382,30.437774
6,钓鱼嘴,104.03875,30.442993
6,回龙,104.018861,30.450485
6,兰家沟,104.003033,30.449176
7,崔家店,104.142949,30.67157
7,双店路,104.143602,30.663427
7,槐树店,104.145913,30.65598
7,迎晖路,104.146216,30.645195
7,成都东客站,104.147357,30.635151
7,大观,104.139212,30.62765
7,狮子山,104.130852,30.62185
7,四川师大,104.122618,30.615102
7,琉璃场,104.106408,30.613229
7,三瓦窑,104.084344,30.610034
7,火车南站,104.073663,30.610881
7,神仙树,104.054223,30.616046
7,高朋大道,104.039926,30.623718
7,太平园,104.027774,30.631577
7,武侯大道,104.0193,30.643407
7,龙爪堰,104.015004,30.657335
7,东坡路,104.014456,30.666868
7,文化宫,104.016235,30.67775
7,金沙博物馆,104.019096,30.683477
7,一品天下,104.026772,30.695227
7,茶店子,104.037344,30.702534
7,花照壁,104.047248,30.702914
7,西南交大,104.055494,30.701119
7,九里堤,104.063457,30.700879
7,北站西二路,104.072587,30.700391
7,火车北站,104.080354,30.701458
7,驷马桥,104.100604,30.701188
7,府青路,104.113719,30.700231
7,八里庄,104.124607,30.692966
7,二仙桥,104.132893,30.686739
7,理工大学,104.143066,30.679745
7,崔家店,104.142949,30.67157
8,十里店,104.150752,30.685918
8,理工大学,104.143066,30.679745
8,东郊记忆,104.135614,30.674536
8,杉板桥,104.125838,30.669991
8,万年路,104.121574,30.660427
8,双桥路,104.119789,30.652251
8,东大路,104.119101,30.639263
8,净居寺,104.110846,30.628185
8,东光,104.104556,30.625342
8,东湖公园,104.094456,30.625207
8,川大望江校区,104.082289,30.631163
8,倪家桥,104.072895,30.630932
8,芳草街,104.059062,30.63215
8,永丰,104.053381,30.63449
8,九兴大道,104.045255,30.627609
8,高朋大道,104.039926,30.623718
8,殷家林,104.040843,30.612116
8,庆安,104.040579,30.604678
8,石羊,104.03747,30.59167
8,三元,104.032516,30.587695
8,顺风,104.017477,30.583134
8,珠江路,104.014576,30.57235
8,川大江安校区,104.013624,30.56129
8,文星,103.997218,30.556315
8,莲花,103.985939,30.551865
9,黄田坝,103.978486,30.703446
9,成都西站,103.983382,30.689487
9,培风,103.983771,30.666621
9,机投桥,103.98487,30.650967
9,武青南路,103.991739,30.628332
9,簇桥,103.996905,30.612736
9,华兴,104.008144,30.604282
9,太平寺,104.018645,30.597233
9,三元,104.032516,30.587695
9,锦城大道,104.05674,30.581051
9,孵化园,104.072316,30.582009
9,心岛,104.079564,30.581721
9,金融城东,104.091626,30.585028
10,太平园,104.027774,30.631577
10,簇锦,104.014695,30.617198
10,华兴,104.008144,30.604282
10,金花,103.976779,30.597311
10,双流机场1航站楼,103.965899,30.584444
10,双流机场2航站楼,103.963255,30.575293
10,双流西站,103.923595,30.549467
10,应天寺,103.911204,30.54195
10,黄水,103.897809,30.525129
10,花源,103.887371,30.491274
10,新津站,103.879808,30.468814
10,花桥,103.863918,30.447486
10,五津,103.819708,30.430003
10,儒林路,103.809754,30.422809
10,刘家碾,103.798083,30.421657
10,新平,103.788437,30.414749
17,机投桥,103.98487,30.650967
17,白佛桥,103.969536,30.646814
17,九江北,103.92777,30.640912
17,明光,103.875037,30.664216
17,温泉大道,103.862707,30.677392
17,凤溪河,103.849656,30.692699
17,市五医院,103.836026,30.704535
17,黄石,103.82037,30.727999
17,金星,103.800499,30.762453
18,火车南站,104.073663,30.610881
18,孵化园,104.072316,30.582009
18,锦城广场东,104.07549,30.575563
18,世纪城,104.075143,30.560685
18,海昌路,104.077465,30.498881
18,西博城,104.082442,30.430495
18,兴隆,104.10872,30.415153
18,天府新站,104.157542,30.396436
18,三岔,104.323705,30.317346
18,福田,104.39363,30.284603
18,天府机场3号4号航站楼,104.430737,30.276107
18,天府机场1号2号航站楼,104.451095,30.317342
18,天府机场北,104.462308,30.339933
